City_ID,City,Lat,Lng,Max Temp,Humidity,Cloudiness,Wind Speed,Country,Date
0,adamstown,-25.066,-130.1015,71.65,76,56,22.77,PN,1723158193
1,albany,42.6001,-73.9662,65.26,75,99,3.0,US,1723157591
2,fortuna,40.5982,-124.1573,68.94,78,20,14.97,US,1723158196
3,grytviken,-54.2811,-36.5092,4.15,76,17,15.7,GS,1723158198
4,bredasdorp,-34.5322,20.0403,55.58,78,80,26.93,ZA,1723158200
5,afaahiti,-17.75,-149.2833,75.87,86,32,11.61,PF,1723158203
6,ribeira grande,38.5167,-28.7,73.78,80,0,5.99,PT,1723158204
7,port moresby,-9.4431,147.1797,80.02,74,75,11.5,PG,1723158206
8,poronaysk,49.2167,143.1167,60.19,100,99,9.06,RU,1723158208
9,margaret river,-33.95,115.0667,59.85,79,71,11.34,AU,1723158210
10,ushuaia,-54.8,-68.3,40.66,81,75,3.44,AR,1723158030
11,port-aux-francais,-49.35,70.2167,35.83,74,87,20.45,TF,1723158213
12,okhotsk,59.3833,143.3,64.83,63,7,5.77,RU,1723158215
13,yellowknife,62.456,-114.3525,73.92,49,20,15.01,CA,1723158087
14,the dalles,45.5946,-121.1787,99.23,26,63,5.99,US,1723158219
15,shalkar,47.8288,59.6258,69.46,70,16,6.82,KZ,1723158220
16,enewetak,11.3474,162.3373,84.31,75,20,14.61,MH,1723158222
17,tayzhina,53.6679,87.4362,60.39,98,100,3.83,RU,1723158224
18,puerto baquerizo moreno,-0.9,-89.6,72.59,83,40,14.97,EC,1723158226
19,gering,41.8258,-103.6605,64.53,81,100,5.99,US,1723158228
20,amos,48.5669,-78.1162,71.17,58,77,5.26,CA,1723158116
21,saryozek,44.3583,77.9753,71.1,28,0,5.53,KZ,1723158231
22,invercargill,-46.4,168.35,43.02,98,54,1.99,NZ,1723158233
23,blackmans bay,-43.0167,147.3167,53.53,72,72,3.0,AU,1723158235
24,sao gabriel da cachoeira,-0.1303,-67.0892,81.7,72,77,1.79,BR,1723158236
25,tolanaro,-25.0319,46.9987,68.07,88,20,26.46,MG,1723158239
26,ancud,-41.8697,-73.8203,45.82,79,100,4.94,CL,1723158082
27,lihue,21.9789,-159.3672,83.79,67,20,11.5,US,1723158242
28,tippi,7.2,35.45,65.1,97,93,1.7,ET,1723158244
29,anadyr,64.75,177.4833,46.9,75,75,6.71,RU,1723158246
30,aginskoye,51.1,114.53,61.61,80,36,2.75,RU,1723158247
31,rikaze,29.25,88.8833,46.31,88,100,3.36,CN,1723158249
32,edinburgh of the seven seas,-37.0676,-12.3116,58.41,94,100,35.88,SH,1723158251
33,hawaiian paradise park,19.5933,-154.9731,83.88,70,20,8.05,US,1723158253
34,igarka,67.4667,86.5833,50.34,70,95,10.87,RU,1723158254
35,island harbour,50.724,-1.2758,65.98,95,100,7.0,GB,1723158256
36,kodiak,57.79,-152.4072,56.71,67,100,10.36,US,1723158258
37,west island,-12.1568,96.8225,78.78,83,35,19.57,CC,1723158261
38,san patricio,28.017,-97.5169,93.65,45,0,12.95,US,1723158263
39,lata,40.1629,-8.3327,57.58,97,2,1.92,PT,1723158265
40,kintampo,8.0563,-1.7306,72.79,83,77,7.65,GH,1723158268
41,xiaoweizhai,26.1903,107.5125,73.38,96,88,4.03,CN,1723158270
42,tafuna,-14.3358,-170.72,77.77,72,81,22.59,AS,1723158272
43,lompoc,34.6391,-120.4579,66.52,72,0,18.41,US,1723158274
44,brisas de zicatela,15.8369,-97.0419,81.12,89,100,11.5,MX,1723158276
45,thompson,55.7435,-97.8558,64.56,52,75,11.5,CA,1723158278
46,salinopolis,-0.6136,-47.3561,80.42,81,0,12.15,BR,1723158279
47,abak,4.9797,7.7917,73.11,95,96,3.11,NG,1723158281
48,waitangi,-43.9535,-176.5597,53.82,84,91,10.0,NZ,1723158283
49,melendugno,40.2747,18.3368,79.27,79,26,11.07,IT,1723158285
50,fale old settlement,-9.3852,-171.2468,82.8,75,100,16.96,TK,1723158287
51,yugorsk,61.3133,63.3319,52.41,72,73,1.68,RU,1723158289
52,bethel,41.3712,-73.414,66.6,91,100,6.93,US,1723158290
53,grand falls-windsor,48.9332,-55.6649,59.04,63,74,9.46,CA,1723158292
54,naze,28.3667,129.4833,82.63,76,0,4.56,JP,1723158294
55,east grand forks,47.93,-97.0245,64.44,65,100,18.41,US,1723158295
56,uliastay,47.7417,96.8444,54.19,58,100,4.14,MN,1723158297
57,hermanus,-34.4187,19.2345,56.53,82,93,34.72,ZA,1723158299
58,malpe,13.35,74.7167,75.2,94,99,5.37,IN,1723158301
59,tiksi,71.6872,128.8694,41.38,90,100,12.8,RU,1723158303
60,nar'yan-mar,67.6713,53.087,43.05,84,21,4.23,RU,1723158307
61,mejit,10.2753,170.8646,82.99,79,98,18.5,MH,1723158309
62,kerikeri,-35.2268,173.9474,59.92,88,5,1.99,NZ,1723158311
63,lethbridge,49.7,-112.8186,69.91,43,40,0.0,CA,1723158313
64,mount isa,-20.7333,139.5,64.17,39,0,6.91,AU,1723158315
65,portland,45.5234,-122.6762,97.16,37,77,3.0,US,1723158019
66,calvinia,-31.4707,19.776,47.17,89,98,24.0,ZA,1723158319
67,prince george,53.9166,-122.753,82.62,41,0,4.61,CA,1723158320
68,porto velho,-8.7619,-63.9039,86.05,54,4,0.0,BR,1723158053
69,papatowai,-46.5619,169.4708,48.6,71,32,2.75,NZ,1723158324
70,bilibino,68.0546,166.4372,54.03,46,29,2.3,RU,1723158326
71,pelabuhanratu,-6.9875,106.5514,75.56,90,66,4.03,ID,1723158327
72,zag,46.9441,99.165,54.3,74,100,2.84,MN,1723158329
73,susuman,62.7833,148.1667,55.6,64,78,2.17,RU,1723158090
74,douglas,41.3,-96.167,73.78,45,0,12.66,US,1723158306
75,iqaluit,63.7506,-68.5145,53.33,81,100,11.5,CA,1723158336
76,georgetown,5.4112,100.3354,84.13,78,20,5.01,MY,1723158338
77,saint-pierre,-21.3393,55.4781,69.48,68,0,9.22,RE,1723158340
78,tomatlan,19.9333,-105.25,90.72,64,99,14.67,MX,1723158341
79,tual,-5.6667,132.75,77.2,82,55,22.24,ID,1723158343
80,abalak,58.1286,68.5944,51.62,75,100,5.17,RU,1723158345
81,la passe,45.5549,-0.8967,63.66,81,3,8.12,FR,1723158349
82,constantia,44.1833,28.65,71.31,73,0,6.67,RO,1723158351
83,fort bragg,35.139,-79.006,78.64,87,75,6.91,US,1723158138
84,lively,46.4334,-81.1498,75.02,65,0,8.34,CA,1723158354
85,westport,41.1415,-73.3579,67.82,94,100,17.27,US,1723158101
86,port hedland,-20.3167,118.5667,57.25,72,11,6.91,AU,1723158276
87,rongelap,11.1635,166.8941,83.57,77,93,16.42,MH,1723158361
88,bikenibeu village,1.3673,173.1241,89.56,62,40,6.91,KI,1723158363
89,cho dok,10.7,105.1167,78.78,89,3,4.65,VN,1723158365
90,tyumentsevo,53.3224,81.498,57.87,97,63,4.23,RU,1723158367
91,puerto natales,-51.7236,-72.4875,50.45,62,75,25.32,CL,1723158370
92,klyuchi,52.2667,79.1667,64.29,86,87,4.14,RU,1723158374
93,namibe,-15.1961,12.1522,62.78,79,0,5.93,AO,1723158376
94,le vauclin,14.5452,-60.8388,82.45,78,0,9.22,MQ,1723158378
95,doka,13.5167,35.7667,70.95,94,100,6.6,SD,1723158379
96,flin flon,54.7682,-101.865,69.64,40,75,9.22,CA,1723158232
97,carnarvon,-24.8667,113.6333,62.15,52,0,12.91,AU,1723158383
98,porto novo,6.4965,2.6036,74.86,82,17,6.58,BJ,1723158385
99,richards bay,-28.783,32.0377,71.55,41,0,11.95,ZA,1723158387
100,mount gambier,-37.8333,140.7667,45.7,99,60,5.37,AU,1723158388
101,wailua homesteads,22.0669,-159.378,83.19,68,20,11.5,US,1723158390
102,aleksandrov gay,50.147,48.5704,68.05,73,46,10.18,RU,1723158392
103,cooma,-36.2333,149.1333,44.83,72,100,0.67,AU,1723158394
104,fall river,41.7015,-71.1551,67.78,91,100,6.91,US,1723158396
105,harstad,68.799,16.5293,60.06,77,70,4.03,NO,1723158397
106,aljezur,37.3191,-8.8033,62.46,95,14,11.45,PT,1723158399
107,coquimbo,-29.9533,-71.3436,55.98,60,0,3.44,CL,1723158401
108,hithadhoo,-0.6,73.0833,81.19,76,100,9.84,MV,1723158403
109,petropavlovsk-kamchatsky,53.0452,158.6483,55.99,100,100,8.95,RU,1723158405
110,ilulissat,69.2167,-51.1,44.62,87,100,0.0,GL,1723158406
111,haiku-pauwela,20.9219,-156.3051,83.25,66,40,25.32,US,1723158408
112,san antonio de pale,-1.4014,5.6325,73.27,82,100,7.2,GQ,1723158410
113,taoudenni,22.6783,-3.9836,104.47,7,26,13.96,ML,1723158412
114,phang nga,8.4509,98.5298,74.66,97,62,1.95,TH,1723158413
115,inhambane,-23.865,35.3833,69.46,88,0,11.77,MZ,1723158415
116,ugoofaaru,5.6667,73.0,82.63,75,100,8.3,MV,1723158417
117,vyazemskiy,47.5378,134.7525,72.48,89,24,2.62,RU,1723158419
118,port mathurin,-19.6833,63.4167,72.09,75,48,19.48,MU,1723158420
119,bam,29.106,58.357,91.36,7,2,7.78,IR,1723158422
120,utrik,11.2278,169.8474,82.85,80,96,19.55,MH,1723158423
121,dalaba,10.7,-12.25,63.61,98,100,3.4,GN,1723158425
122,whitehorse,60.7161,-135.0538,81.37,32,20,13.8,CA,1723158287
123,lichinga,-13.3128,35.2406,57.47,54,5,3.87,MZ,1723158429
124,concordia,-31.393,-58.0209,45.79,90,100,8.99,AR,1723158430
125,port angeles,48.1181,-123.4307,75.81,54,0,3.44,US,1723158191
126,kerouane,9.2667,-9.0167,70.11,98,100,3.85,GN,1723158433
127,san julian,21.0167,-102.1667,71.87,58,64,7.2,MX,1723158435
128,caiaponia,-16.9567,-51.8103,72.23,30,10,3.8,BR,1723158437
129,chui,-33.6971,-53.4616,47.12,63,43,11.18,UY,1723158320
130,grand-lahou,5.1367,-5.0242,73.94,88,94,6.76,CI,1723158441
131,taulaga,-11.0553,-171.0883,81.0,79,61,18.54,AS,1723158442
132,ceerigaabo,10.6162,47.368,67.32,61,38,15.17,SO,1723158444
133,codrington,-38.2667,141.9667,48.06,90,20,9.84,AU,1723158446
134,russkaya polyana,49.417,31.9201,63.9,65,100,1.79,UA,1723158448
135,puerto ayora,-0.7393,-90.3518,68.56,89,83,5.99,EC,1723158449
136,badger,64.8,-147.5333,69.71,68,75,9.22,US,1723158451
137,kapit,2.0167,112.9333,72.52,99,100,1.25,MY,1723158452
138,ad dilam,23.9915,47.1627,91.67,14,73,4.52,SA,1723158454
139,kapuskasing,49.4169,-82.4331,60.89,100,100,10.36,CA,1723158456
140,la'ie,21.6477,-157.9253,83.1,75,23,5.99,US,1723158458
141,sombrerete,23.6333,-103.65,78.03,24,72,15.84,MX,1723158460
142,stanley,54.868,-1.6985,61.52,93,40,6.91,GB,1723158462
143,margate,51.3813,1.3862,66.69,84,100,1.99,GB,1723158453
144,karratha,-20.7377,116.8463,69.03,38,9,7.74,AU,1723158466
145,biao,7.1633,125.5211,78.62,100,75,2.3,PH,1723158469
146,nova vicosa,-17.8919,-39.3719,71.15,74,0,8.41,BR,1723158471
147,yueyang,29.3333,113.0919,82.98,70,42,9.53,CN,1723158474
148,kangding,30.0513,101.9603,64.6,97,99,1.07,CN,1723158476
149,luderitz,-26.6481,15.1594,55.92,70,0,7.74,NA,1723158478
150,rio gallegos,-51.6226,-69.2181,39.25,87,0,5.75,AR,1723158368
151,praia,14.9215,-23.5087,81.14,74,75,11.5,CV,1723158483
152,talnakh,69.4865,88.3972,47.77,73,3,3.83,RU,1723158486
153,aleksandrovsk-sakhalinskiy,50.8975,142.1561,55.85,96,100,11.32,RU,1723158488
154,hadibu,12.65,54.0333,77.13,81,26,17.65,YE,1723158490
155,inarajan village,13.2736,144.7484,85.78,84,93,7.23,GU,1723158492
156,schomberg,48.7871,8.645,57.72,77,5,4.21,DE,1723158494
157,arklow,52.7931,-6.1414,59.34,87,100,16.89,IE,1723158496
158,zaragoza,41.6561,-0.8773,84.65,50,0,14.97,ES,1723158497
159,punta arenas,-53.15,-70.9167,44.11,87,75,4.61,CL,1723158200
160,abu dhabi,24.4667,54.3667,94.95,60,0,6.91,AE,1723158501
161,dingli,35.8614,14.3822,78.96,74,0,3.44,MT,1723158503
162,aasiaat,68.7098,-52.8699,37.99,94,99,3.36,GL,1723158505
163,klerksdorp,-26.8521,26.6667,57.02,39,0,11.3,ZA,1723158507
164,coahuayana de hidalgo,18.7,-103.6583,87.49,72,78,5.77,MX,1723158509
165,urangan,-25.3,152.9,64.13,80,63,12.19,AU,1723158372
166,pisco,-13.7,-76.2167,62.02,82,0,14.97,PE,1723158514
167,terrace,54.5163,-128.6035,89.69,33,0,1.34,CA,1723158516
168,lagunas,-5.2269,-75.6753,85.57,46,44,1.34,PE,1723158518
169,tharyarwady,17.65,95.8,76.05,95,58,3.49,MM,1723158520
170,gobabis,-22.45,18.9667,54.7,31,1,4.54,NA,1723158521
171,saldanha,-33.0117,17.9442,56.39,85,81,26.55,ZA,1723158523
172,la tuque,47.4334,-72.7824,69.17,64,95,4.61,CA,1723158525
173,nadi,-17.8,177.4167,80.6,57,75,5.75,FJ,1723158527
174,northam,51.0333,-4.2167,63.61,98,100,19.37,GB,1723158529
175,east ballina,-28.8667,153.5833,58.86,72,98,9.04,AU,1723158531
176,st. john's,47.5649,-52.7093,67.28,68,79,1.01,CA,1723158532
177,chibougamau,49.9168,-74.3659,63.63,60,99,3.94,CA,1723158534
178,sedalia,38.7045,-93.2283,78.85,73,75,9.22,US,1723158438
179,brookings,44.3114,-96.7984,63.05,59,100,17.27,US,1723158404
180,mersa matruh,31.3525,27.2453,79.66,71,0,1.07,EG,1723158540
181,antalaha,-14.9003,50.2788,68.07,78,3,7.23,MG,1723158542
182,college,64.8569,-147.8028,69.08,73,100,6.91,US,1723158543
183,newman,37.3138,-121.0208,109.27,8,0,6.04,US,1723158052
184,tadine,-21.55,167.8833,72.86,64,18,12.46,NC,1723158547
185,holualoa,19.6228,-155.9522,79.56,77,40,9.22,US,1723158549
186,isafjordur,66.0755,-23.124,42.51,93,98,6.85,IS,1723158551
187,tobelo,1.7284,128.0095,79.7,82,100,5.57,ID,1723158327
188,vernon,50.2581,-119.2691,86.45,41,0,1.01,CA,1723158554
189,qaqortoq,60.7167,-46.0333,43.05,96,100,1.97,GL,1723158557
190,masterton,-40.9597,175.6575,47.46,99,100,6.58,NZ,1723158559
191,totness,5.8833,-56.3167,80.56,82,83,5.61,SR,1723158561
192,xinyuan,37.3,99.0,39.15,87,8,6.4,CN,1723158563
193,ebon,4.582,168.6964,83.43,74,48,8.77,MH,1723158564
194,kingston,17.997,-76.7936,88.75,70,20,18.41,JM,1723158298
195,nguru,12.8791,10.4526,81.3,68,100,10.49,NG,1723158568
196,winnemucca,40.973,-117.7357,96.85,11,0,5.75,US,1723158570
197,ust-nera,64.5667,143.2,58.77,70,89,5.57,RU,1723158571
198,preston,53.7667,-2.7167,62.62,96,100,19.46,GB,1723158335
199,port elizabeth,-33.918,25.5701,52.32,91,3,8.55,ZA,1723158560
200,olonkinbyen,70.9221,-8.7187,41.4,98,100,9.42,SJ,1723158579
201,alpena,45.0617,-83.4327,75.52,88,0,9.22,US,1723158116
202,nova sintra,14.8667,-24.7167,78.46,78,11,6.49,CV,1723158583
203,sisimiut,66.9395,-53.6735,41.72,85,99,3.96,GL,1723158584
204,khao yoi,13.2403,99.8243,79.65,80,53,2.3,TH,1723158588
205,nakamura,32.9833,132.9333,87.01,62,99,1.3,JP,1723158590
206,tateyama,34.9833,139.8667,82.85,81,0,11.81,JP,1723158591
207,tucuma,-0.1833,-50.05,80.56,77,49,10.07,BR,1723158593
208,port alfred,-33.5906,26.891,56.17,95,14,1.01,ZA,1723158595
209,comodoro rivadavia,-45.8667,-67.5,49.35,59,99,10.67,AR,1723158597
210,polyarnyy,69.1989,33.4478,54.25,61,18,11.32,RU,1723158599
211,salalah,17.0151,54.0924,75.29,100,100,5.75,OM,1723158601
212,kotabumi,-4.8333,104.9,73.38,91,75,3.24,ID,1723158602
213,mount pearl,47.5166,-52.7813,66.45,66,78,4.0,CA,1723158604
214,hasaki,35.7333,140.8333,82.72,82,0,13.4,JP,1723158606
215,kavaratti,10.5669,72.642,80.1,84,90,9.22,IN,1723158608
216,eastham,41.8301,-69.9739,66.94,91,100,9.22,US,1723158610
217,tazovsky,67.4667,78.7,41.13,87,31,11.74,RU,1723158612
218,palembang,-2.9167,104.7458,73.76,98,100,4.52,ID,1723158614
219,erenhot,43.6475,111.9767,77.43,49,100,10.11,CN,1723158615
220,kruisfontein,-34.0033,24.7314,50.79,82,1,8.7,ZA,1723158618
221,ajjampur,13.7281,76.0094,70.14,90,100,8.39,IN,1723158619
222,ixtapa,20.7,-105.2,89.22,74,100,13.8,MX,1723158621
223,lanja,16.85,73.55,74.26,94,98,1.95,IN,1723158623
224,crucecita,-28.95,-58.9833,46.81,62,4,11.77,AR,1723158624
225,qamdo,31.1667,97.2333,44.58,91,100,4.12,CN,1723158626
226,santa cruz,-17.8,-63.1667,57.25,82,75,11.5,BO,1723158628
227,selfoss,63.9331,-20.9971,50.79,87,83,4.9,IS,1723158630
228,puerto rosario,-24.45,-57.0833,57.83,41,48,8.9,PY,1723158631
229,poxoreo,-15.8372,-54.3892,84.27,26,71,2.64,BR,1723158633
230,saint-philippe,-21.3585,55.7679,69.19,77,71,10.45,RE,1723158635
231,dudinka,69.4058,86.1778,44.06,76,1,15.55,RU,1723158637
232,sungai penuh,-2.0833,101.3833,65.57,94,77,5.61,ID,1723158639
233,qingyang,37.4958,121.2581,79.05,83,76,1.72,CN,1723158641
234,jajpur,20.85,86.3333,81.45,83,100,4.12,IN,1723158643
235,jamestown,42.097,-79.2353,74.84,88,100,8.05,US,1723158441
236,aykhal,66.0,111.5,48.52,91,100,10.07,RU,1723158649
237,muana,-1.5283,-49.2167,81.82,66,78,7.27,BR,1723158651
238,novyy urgal,51.0736,132.5642,63.19,97,97,4.18,RU,1723158653
239,bhuj,23.2667,69.6667,80.82,85,100,15.32,IN,1723158389
240,zonguldak,41.25,31.8333,61.18,95,0,3.83,TR,1723158657
241,ayr,55.4627,-4.6339,60.78,94,100,16.11,GB,1723158658
242,itoman,26.1247,127.6694,86.77,79,20,8.05,JP,1723158475
243,mahina,-17.5065,-149.489,82.17,74,20,14.97,PF,1723158662
244,peace river,56.2501,-117.286,76.62,42,0,7.18,CA,1723158664
245,bonthe,7.5264,-12.505,76.05,83,100,7.36,SL,1723158665
246,remire-montjoly,4.9167,-52.2667,80.64,89,20,5.75,GF,1723158667
247,avarua,-21.2078,-159.775,75.25,50,20,8.05,CK,1723158539
248,kapoeta,4.7717,33.5903,75.52,74,77,4.99,SS,1723158671
249,malango,-2.9627,119.9001,67.57,98,96,2.62,ID,1723158673
250,mufumbwe,-13.6833,24.8,56.84,28,11,4.52,ZM,1723158674
251,san pedro piedra gorda,22.45,-102.35,83.48,24,73,16.69,MX,1723158676
252,kangaba,11.9333,-8.4167,74.55,93,100,2.51,ML,1723158678
253,carletonville,-26.3609,27.3977,57.34,43,0,10.38,ZA,1723158679
254,shitanjing,39.2342,106.3439,64.06,80,100,33.67,CN,1723158681
255,santa ana,33.7456,-117.8678,84.83,57,20,12.66,US,1723158457
256,puerto armuelles,8.2833,-82.8667,82.09,84,100,5.01,PA,1723158685
257,cidreira,-30.1811,-50.2056,51.73,92,100,5.84,BR,1723158687
258,vadso,70.0744,29.7487,48.36,76,6,4.61,NO,1723158689
259,changtu,42.7788,124.0955,73.36,83,97,4.38,CN,1723158692
260,grand-bourg,15.8835,-61.3148,84.22,74,5,18.34,GP,1723158694
261,keflavik,64.0049,-22.5624,50.43,93,100,6.91,IS,1723158696
262,mitu,1.1983,-70.1733,77.09,83,81,1.79,CO,1723158698
263,sarkand,45.41,79.9186,75.61,24,2,9.19,KZ,1723158701
264,lebu,-37.6167,-73.65,45.18,83,15,9.42,CL,1723158703
265,laguna,38.421,-121.4238,96.06,29,0,9.22,US,1723158705
266,arraial do cabo,-22.9661,-42.0278,74.39,80,0,18.41,BR,1723158707
267,pimenta bueno,-11.6725,-61.1936,88.32,30,71,2.39,BR,1723158708
268,yanchep,-31.55,115.6833,52.48,92,7,7.09,AU,1723158710
269,syktyvkar,61.6764,50.8099,47.93,100,100,0.0,RU,1723158712
270,kuta,-8.7233,115.1723,76.95,94,75,11.5,ID,1723158714
271,port lincoln,-34.7333,135.8667,52.9,79,100,6.35,AU,1723158716
272,fisterra,42.9049,-9.2629,66.2,88,0,16.82,ES,1723158717
273,yeppoon,-23.1333,150.7333,63.63,78,26,12.86,AU,1723158719
274,pecan plantation,32.3604,-97.6756,101.95,36,2,10.98,US,1723158721
275,saudarkrokur,65.7461,-19.6394,44.11,92,100,4.0,IS,1723158724
276,lazaro cardenas,17.9583,-102.2,86.97,73,62,8.14,MX,1723158726
277,megion,61.0296,76.1136,52.74,71,100,11.36,RU,1723158728
278,bushehr,28.9684,50.8385,89.2,78,49,14.27,IR,1723158729
279,ta`u,-14.2336,-169.5144,77.31,74,84,22.1,AS,1723158731
280,iskateley,67.6803,53.1512,43.11,84,27,4.23,RU,1723158733
281,longyearbyen,78.2186,15.6401,53.44,87,0,4.61,SJ,1723158734
282,hillsborough,37.5741,-122.3794,73.9,73,20,25.32,US,1723158736
283,quellon,-43.1167,-73.6167,44.62,90,100,6.89,CL,1723158499
284,nemuro,43.3236,145.575,65.89,99,100,7.36,JP,1723158739
285,dazhou,31.2159,107.5009,79.18,81,85,3.04,CN,1723158741
286,dunedin,-45.8742,170.5036,50.81,64,27,2.19,NZ,1723158742
287,kegeyli shahar,42.7767,59.6078,80.35,47,0,10.04,UZ,1723158744
288,somerset east,-32.7217,25.588,52.59,29,0,7.99,ZA,1723158746
289,cartagena del chaira,1.3349,-74.8429,79.59,73,28,1.81,CO,1723158748
290,callao,-12.0667,-77.15,61.09,77,100,8.05,PE,1723158750
291,yangambi,0.8102,24.4336,71.13,94,39,2.95,CD,1723158751
292,touros,-5.1989,-35.4608,75.22,85,0,12.8,BR,1723158753
293,xique xique,-10.8217,-42.7311,78.01,46,0,2.26,BR,1723158755
294,chonchi,-42.6128,-73.8092,44.13,92,100,1.41,CL,1723158757
295,bayganin,48.6947,55.8742,69.4,71,2,6.96,KZ,1723158758
296,sao felix do xingu,-6.6447,-51.995,80.1,32,0,0.78,BR,1723158760
297,khandyga,62.6667,135.6,62.35,65,41,1.1,RU,1723158762
298,coari,-4.085,-63.1414,84.42,41,4,1.12,BR,1723158764
299,mariinsk,56.2139,87.7472,57.65,98,42,4.36,RU,1723158766
300,kununurra,-15.7667,128.7333,69.78,46,6,6.91,AU,1723158768
301,monte alegre,-2.0078,-54.0692,84.33,47,19,4.05,BR,1723158771
302,oyugis,-0.509,34.7358,62.62,80,84,5.35,KE,1723158773
303,la foa,-21.7108,165.8276,72.91,61,0,2.28,NC,1723158774
304,wotho,10.1657,166.0102,83.52,74,15,14.99,MH,1723158776
305,kadom,54.5592,42.4675,60.1,97,100,5.73,RU,1723158778
306,banaz,38.7371,29.7519,69.22,46,0,7.14,TR,1723158780
307,nagqu,31.5,92.0,39.06,92,100,3.4,CN,1723158782
308,laojunmiao,39.8333,97.7333,58.03,63,34,21.94,CN,1723158784
309,gramoteino,54.5368,86.3839,58.48,96,95,2.06,RU,1723158785
310,tsiombe,-25.3,45.4833,66.63,77,0,3.98,MG,1723158787
311,texarkana,33.4251,-94.0477,97.02,54,0,5.75,US,1723158663
312,ladnun,27.65,74.3833,81.07,79,100,9.01,IN,1723158793
313,greymouth,-42.4667,171.2,50.67,73,60,8.43,NZ,1723158794
314,kudahuvadhoo,2.6708,72.8944,81.57,72,90,4.97,MV,1723158796
315,ilsenburg,51.8667,10.6833,61.18,100,61,4.09,DE,1723158798
316,selty,57.3132,52.1345,53.74,91,42,6.46,RU,1723158800
317,ilha de mocambique,-15.0342,40.7358,74.62,77,0,3.96,MZ,1723158801
318,fort mcmurray,56.7268,-111.381,77.14,25,8,3.11,CA,1723158772
319,vilyuchinsk,52.9306,158.4028,56.08,99,100,4.54,RU,1723158805
320,freetown,8.484,-13.2299,76.12,88,100,6.87,SL,1723158807
321,igrim,63.1906,64.4162,46.62,88,3,3.8,RU,1723158808
322,kaiapoi,-43.3783,172.6401,47.46,88,100,11.5,NZ,1723158810
323,korla,41.7597,86.1469,71.83,47,0,4.81,CN,1723158812
324,tralee,52.2704,-9.7026,56.26,92,97,8.66,IE,1723158814
325,kayangel,8.0823,134.7173,83.75,71,100,6.02,PW,1723158816
326,usinsk,65.9939,57.5281,48.42,78,2,8.19,RU,1723158817
327,ponta delgada,37.7333,-25.6667,72.32,78,20,9.22,PT,1723158819
328,fiambala,-27.6871,-67.6149,36.7,57,1,6.64,AR,1723158821
329,udachny,66.4167,112.4,49.71,88,100,10.71,RU,1723158823
330,tayga,56.06,85.6197,53.96,99,60,4.45,RU,1723158824
331,gao,16.6362,1.637,90.54,45,84,10.0,ML,1723158826
332,tangalle,6.024,80.7911,79.09,82,99,10.6,LK,1723158769
333,kokemaki,61.2565,22.3564,58.05,93,97,4.68,FI,1723158829
334,labrador city,52.9463,-66.9114,53.35,62,99,4.09,CA,1723158831
335,filipstad,59.7124,14.1683,53.24,96,61,4.25,SE,1723158833
336,brigantine,39.4101,-74.3646,77.05,96,100,11.5,US,1723158834
337,uturoa,-16.7333,-151.4333,78.6,77,7,6.85,PF,1723158836
338,lakatoro,-16.0999,167.4164,77.29,65,27,15.64,VU,1723158838
339,kone,-21.0595,164.8658,78.13,47,4,3.47,NC,1723158839
340,zhaotong,27.3167,103.7167,62.8,94,4,3.2,CN,1723158841
341,filomeno mata,20.2,-97.7,81.3,78,100,3.02,MX,1723158843
342,roma,43.2128,-75.4557,64.54,96,100,8.05,US,1723158845
343,chinchilla,-26.75,150.6333,57.02,83,0,1.99,AU,1723158847
344,guilin,25.2819,110.2864,78.71,90,5,2.15,CN,1723158848
345,castillos,-34.1667,-53.8333,45.82,66,58,8.81,UY,1723158850
346,kourou,5.1552,-52.6478,79.09,85,11,8.43,GF,1723158852
347,affery,6.315,-3.9603,69.67,96,96,3.11,CI,1723158855
348,kharian,32.8149,73.8636,84.47,72,88,5.86,PK,1723158857
349,fada,7.25,4.0667,69.91,92,46,2.55,NG,1723158859
350,kapa'a,22.0752,-159.319,84.52,65,20,11.5,US,1723158860
351,chuhar jamali,24.3895,67.9923,82.27,84,65,13.4,PK,1723158862
352,tarija,-21.5355,-64.7296,40.91,70,75,11.5,BO,1723158637
353,girvan,55.2426,-4.8555,59.61,96,100,21.34,GB,1723158865
354,goba,7.0167,39.9833,50.97,91,48,3.65,ET,1723158867
355,tynda,55.1667,124.7167,61.9,82,99,1.45,RU,1723158869
356,masuguru,-11.3667,38.4167,69.08,77,46,3.2,TZ,1723158870
357,norilsk,69.3535,88.2027,46.36,77,10,4.38,RU,1723158872
358,atafu village,-8.5421,-172.5159,83.05,76,96,17.45,TK,1723158874
359,santa luzia,-19.7697,-43.8514,73.78,53,2,2.46,BR,1723158876
360,fuerte olimpo,-21.0415,-57.8738,59.41,71,100,4.9,PY,1723158877
361,chancay,-11.5714,-77.2672,62.35,83,50,6.11,PE,1723158879
362,new plymouth,-39.0667,174.0833,51.31,100,72,3.13,NZ,1723158881
363,aral,40.5156,81.2636,79.25,26,8,9.01,CN,1723158883
364,dryden,49.7833,-92.7503,53.89,94,100,11.5,CA,1723158884
365,farafangana,-22.8167,47.8333,69.96,85,97,7.34,MG,1723158886
366,iwamizawa,43.2003,141.7597,76.32,86,100,6.53,JP,1723158888
367,urzhar,47.093,81.6294,74.21,30,18,6.51,KZ,1723158889
368,vila franca do campo,37.7167,-25.4333,70.5,78,0,4.18,PT,1723158891
369,flying fish cove,-10.4217,105.6791,76.68,88,100,14.97,CX,1723158893
370,standerton,-26.9337,29.2415,58.21,41,0,8.01,ZA,1723158894
371,egilsstadir,65.2653,-14.3948,46.31,87,75,4.61,IS,1723158896
372,nizhnesortymskiy,62.4397,71.7603,51.53,72,100,8.23,RU,1723158898
373,labuan,5.2767,115.2417,77.36,94,20,0.0,MY,1723158900
374,jinchang,38.4953,102.1739,64.6,61,62,9.89,CN,1723158903
375,cole harbour,44.6724,-63.4751,68.95,74,22,5.99,CA,1723158905
376,boda,4.3189,17.4695,70.75,92,97,2.48,CF,1723158907
377,pandan,14.0453,124.1694,83.77,80,60,8.59,PH,1723158910
378,bubaque,11.2833,-15.8333,79.79,82,100,14.0,GW,1723158911
379,mccook,40.2019,-100.6257,71.65,56,100,10.36,US,1723158836
380,turinsk,58.0458,63.696,45.77,83,20,4.47,RU,1723158915
381,mogadishu,2.0371,45.3438,75.87,85,70,15.93,SO,1723158916
382,nynashamn,58.9034,17.9479,61.11,86,73,7.94,SE,1723158918
383,upper grand lagoon,30.1633,-85.7408,91.02,78,20,14.97,US,1723158920
384,fort-shevchenko,44.5086,50.263,80.44,74,5,12.55,KZ,1723158922
385,alice springs,-23.7,133.8833,53.15,66,0,0.0,AU,1723158924
386,nema,57.5067,50.5011,53.42,97,58,5.99,RU,1723158925
387,nevesinje,43.2586,18.1133,58.73,79,3,7.02,BA,1723158927
388,xinzhi,36.4989,111.7047,75.15,90,100,4.34,CN,1723158929
389,lumphat,13.4878,106.9816,74.62,97,11,1.7,KH,1723158931
390,alakurtti,66.9672,30.3491,47.93,77,8,2.48,RU,1723158932
391,doume,4.2333,13.45,69.24,88,94,3.24,CM,1723158934
392,anton lizardo,19.05,-95.9833,85.5,76,31,8.05,MX,1723158936
393,ternate,0.8,127.4,79.25,81,99,4.23,ID,1723158937
394,oranjemund,-28.55,16.4333,58.06,65,0,20.76,NA,1723158939
395,tarawa,1.419,172.984,89.69,62,40,6.91,KI,1723158941
396,kill devil hills,36.0307,-75.676,82.98,87,100,18.41,US,1723158942
397,atbasar,51.8,68.3333,63.45,95,100,8.43,KZ,1723158944
398,fengtai,39.5581,117.7492,76.78,86,100,5.66,CN,1723158946
399,sagalo,12.2007,-10.6996,71.4,97,80,3.71,ML,1723158947
400,kirakira,-10.4544,161.9205,81.75,80,92,11.83,SB,1723158949
401,abepura,-2.6333,140.5833,81.41,89,20,3.44,ID,1723158951
402,twin falls,42.3505,-114.6445,86.34,22,0,4.61,US,1723158848
403,nova xavantina,-14.6667,-52.35,77.65,31,6,3.36,BR,1723158954
404,san carlos,9.6612,-68.5827,78.28,90,37,3.18,VE,1723158956
405,at taraf,25.3628,49.725,90.19,27,5,6.71,SA,1723158958
406,mahajanga,-15.7167,46.3167,69.82,60,0,9.22,MG,1723158959
407,port-vila,-17.7338,168.3219,74.8,78,75,12.66,VU,1723158961
408,shingu,33.7333,135.9833,85.39,58,3,2.19,JP,1723158963
409,east london,-33.0153,27.9116,61.5,83,0,5.39,ZA,1723158965
410,ambasa,23.9172,91.8472,75.54,90,99,4.54,IN,1723158967
411,colonia,50.9333,6.95,66.9,77,0,4.61,DE,1723158968
412,yuzhno-kurilsk,44.0306,145.8556,68.86,96,100,4.38,RU,1723158970
413,avondale,33.4356,-112.3496,106.21,27,40,13.8,US,1723158969
414,slave lake,55.2834,-114.769,73.38,43,0,13.8,CA,1723158974
415,floro,61.5996,5.0328,57.16,82,75,11.5,NO,1723158975
416,corumba,-19.0092,-57.6533,60.33,86,97,5.64,BR,1723158977
417,kirensk,57.7853,108.1119,62.06,82,45,3.24,RU,1723158979
418,streator,41.1209,-88.8354,77.07,76,72,7.09,US,1723158980
419,kerewan,13.4898,-16.0888,78.75,88,100,7.99,GM,1723158982
420,pangkalanbuun,-2.6833,111.6167,72.95,100,100,2.01,ID,1723158984
421,bafoulabe,13.8065,-10.8321,80.26,82,91,6.33,ML,1723158985
422,altay,47.8667,88.1167,63.91,41,20,5.19,CN,1723158987
423,reggane,26.7158,0.1714,101.71,8,0,20.56,DZ,1723158989
424,rundu,-17.9333,19.7667,62.91,20,0,5.79,NA,1723158991
425,angaur state,6.906,134.13,82.6,72,100,4.34,PW,1723158992
426,saipan,15.1355,145.701,86.7,74,40,5.75,MP,1723158994
427,cloverdale,38.8055,-123.0172,103.51,16,1,9.8,US,1723158996
428,kwang binh,17.4833,106.6,82.06,76,73,7.74,VN,1723158998
429,trinidad,-14.8333,-64.9,60.78,88,40,13.8,BO,1723158999
430,erdenet,49.0333,104.0833,57.29,83,100,4.47,MN,1723159001
431,quelimane,-17.8786,36.8883,67.46,92,0,4.36,MZ,1723159003
432,geraldton,-28.7667,114.6,48.61,93,0,10.36,AU,1723158963
433,juneau,58.3019,-134.4197,77.0,100,0,9.22,US,1723158963
434,belyy yar,53.6039,91.3903,60.69,100,0,2.24,RU,1723159008
435,takhtamukay,44.9215,38.9958,68.92,79,0,0.0,RU,1723159009
436,swellendam,-34.0226,20.4417,54.93,89,38,16.49,ZA,1723159011
437,vorgashor,67.5833,63.95,41.81,87,1,4.09,RU,1723159013
438,al jawf,29.5,38.75,83.89,16,2,7.11,SA,1723159015
439,zheleznodorozhnyy,55.7503,38.0042,60.26,88,19,4.88,RU,1723159008
440,ra-ngae,6.2968,101.7284,76.48,97,80,2.39,TH,1723159018
441,al qusayr,34.5091,36.5798,75.11,68,0,4.56,SY,1723159020
442,weno,7.4515,151.8468,89.55,84,75,6.91,FM,1723159022
443,longonjo,-12.9067,15.2533,64.15,19,0,2.28,AO,1723159023
444,ulanhot,46.0833,122.0833,71.6,56,84,2.62,CN,1723159025
445,smithers,54.7804,-127.1743,87.17,24,13,4.25,CA,1723158740
446,nuuk,64.1835,-51.7216,39.81,93,100,5.75,GL,1723159028
447,fort st. john,56.2499,-120.8529,76.89,44,40,6.91,CA,1723159030
448,birjand,32.8663,59.2211,75.67,15,0,9.22,IR,1723159032
449,witu,-2.3889,40.4382,73.8,80,43,10.16,KE,1723159034
450,mezhdurechenskiy,59.6,65.9333,50.09,72,45,4.25,RU,1723159035
451,punta del este,-34.9667,-54.95,46.87,84,45,11.99,UY,1723159037
452,idrinskoye,54.3708,92.1358,59.4,95,65,3.04,RU,1723159040
453,kotma,23.2,81.9667,73.9,98,100,8.08,IN,1723159042
454,niort,46.3333,-0.3333,60.98,71,4,5.37,FR,1723159044
455,urucara,-2.5364,-57.76,85.41,38,38,1.59,BR,1723159046
456,sinop,41.7711,34.8709,63.64,83,4,4.88,TR,1723159047
457,port douglas,-16.4833,145.4667,70.56,80,36,9.66,AU,1723159049
458,rosarito,32.3333,-117.0333,72.52,69,19,7.29,MX,1723158905
459,tingo maria,-9.2895,-76.0088,71.82,93,77,0.76,PE,1723159053
460,qarqaraly,49.4058,75.4742,66.94,63,85,6.26,KZ,1723159054
461,hamilton,39.1834,-84.5333,84.92,67,100,11.5,US,1723159056
462,cassilandia,-19.1133,-51.7342,78.42,34,100,4.5,BR,1723159058
463,mar del plata,-38.0023,-57.5575,48.09,82,98,18.99,AR,1723158788
464,kisangani,0.5167,25.2,72.75,94,54,2.93,CD,1723159061
465,churapcha,62.0025,132.4325,62.29,59,63,3.62,RU,1723159063
466,isla mujeres,21.2311,-86.731,85.59,68,57,7.96,MX,1723158899
467,rosetta,31.4044,30.4164,80.71,67,0,11.86,EG,1723159066
468,ola,59.5833,151.2833,58.24,79,97,1.12,RU,1723159068
469,pyrzyce,53.1462,14.8926,60.84,72,56,5.41,PL,1723159070
470,penzance,50.1186,-5.5371,64.29,95,100,20.11,GB,1723159071
471,sinabang,2.4803,96.3801,78.57,84,100,6.35,ID,1723159073
472,hsinchu,24.8036,120.9686,82.89,76,73,3.0,TW,1723159075
473,tostado,-29.232,-61.7692,47.98,58,8,8.55,AR,1723159076
474,zhangatas,43.5667,69.75,82.98,22,1,6.49,KZ,1723159078
475,jayapura,-2.5333,140.7,74.98,84,31,4.27,ID,1723159080
476,new norfolk,-42.7826,147.0587,48.22,82,81,3.8,AU,1723159082
477,kolonia town,6.964,158.206,89.6,66,75,9.22,FM,1723159083
478,berdigestyakh,62.0989,126.6992,63.43,52,18,4.74,RU,1723159085
479,edeleny,48.3,20.7333,66.34,77,52,3.02,HU,1723159087
480,presidencia de la plaza,-27.0015,-59.8424,49.08,59,0,5.61,AR,1723159088
481,conde,-7.2597,-34.9075,72.86,100,75,4.61,BR,1723159090
482,kabansk,52.0486,106.6528,60.85,74,3,1.34,RU,1723159092
483,jinghong,21.991,100.7341,69.12,99,35,1.41,CN,1723159093
484,jiwani,25.05,61.7417,81.46,83,53,6.17,PK,1723159095
485,la ronge,55.1001,-105.2842,71.85,28,75,10.36,CA,1723159097
486,debesy,57.6529,53.8049,54.84,77,99,8.1,RU,1723159098
487,kushikino,31.7167,130.2667,84.36,72,32,5.06,JP,1723159100
488,tver,56.8619,35.8931,55.11,95,54,4.36,RU,1723159017
489,pakokku,21.3333,95.1,77.65,83,10,6.64,MM,1723159104
490,camalu,30.85,-116.0667,71.4,65,2,7.7,MX,1723159105
491,chagoda,59.164,35.3285,54.07,96,50,3.29,RU,1723159107
492,rio grande,-32.035,-52.0986,51.26,76,16,9.53,BR,1723159034
493,farah,32.5,62.5,85.53,10,0,3.62,AF,1723159110
494,xining,36.6167,101.7667,54.0,76,28,2.64,CN,1723159112
495,genteng,-8.3667,114.15,70.92,100,78,1.97,ID,1723159114
496,mili,6.0815,171.735,82.45,73,29,8.21,MH,1723159115
497,juba,4.8517,31.5825,70.27,94,33,3.44,SS,1723159117
498,tura,25.5198,90.2201,74.34,98,100,6.46,IN,1723159119
499,strathmore,51.0501,-113.3852,69.93,40,84,6.91,CA,1723159121
500,vilyuysk,63.7553,121.6247,63.9,57,7,4.0,RU,1723159122
501,vila velha,-20.3297,-40.2925,75.15,75,40,16.11,BR,1723159124
502,crane,31.3974,-102.3501,103.21,14,0,13.35,US,1723159126
503,mmabatho,-25.85,25.6333,57.16,54,0,10.36,ZA,1723159127
504,saint-francois,46.4154,3.9054,60.24,94,0,1.14,FR,1723159129
505,saint croix,17.7397,-64.7388,82.85,85,20,10.36,VI,1723159131
506,tazacorte,28.629,-17.9293,73.15,74,75,13.8,ES,1723159132
507,gubin,51.9496,14.7284,63.03,69,40,1.83,PL,1723159134
508,tabas,33.5959,56.9244,91.62,12,0,4.61,IR,1723159136
509,port macquarie,-31.4333,152.9167,59.07,76,100,4.0,AU,1723159139
510,cabedelo,-6.9811,-34.8339,76.05,83,45,14.63,BR,1723159141
511,shahrud,36.4182,54.9763,71.96,60,26,11.83,IR,1723159143
512,zyryanskoye,56.8306,86.6258,54.82,97,53,5.5,RU,1723159145
513,borodulikha,50.7184,80.9295,67.6,81,100,4.63,KZ,1723159146
514,kupang,-10.1667,123.5833,79.38,83,20,6.91,ID,1723159148
515,merizo village,13.2658,144.6691,86.38,80,94,6.38,GU,1723159150
516,kursenai,55.985,22.9189,59.97,89,74,5.3,LT,1723159152
517,farsan,32.2569,50.561,76.19,27,11,4.76,IR,1723159153
518,happy valley-goose bay,53.3168,-60.3315,62.91,59,40,3.44,CA,1723159155
519,mangrol,21.1167,70.1167,81.59,85,100,16.08,IN,1723159157
520,guadalupe y calvo,26.1,-106.9667,60.71,78,100,5.55,MX,1723159159
521,platon sanchez,21.2833,-98.3667,87.75,79,38,7.2,MX,1723159160
522,san jose,37.3394,-121.895,89.53,45,20,10.36,US,1723159112
523,howrah,22.5892,88.3103,82.4,89,75,0.0,IN,1723159164
524,rio preto da eva,-2.6994,-59.6997,84.29,43,14,2.86,BR,1723159165
525,chegdomyn,51.1167,133.0167,63.19,96,94,0.81,RU,1723159167
526,bodo,67.28,14.405,60.78,96,75,3.44,NO,1723159169
527,fria,10.4167,-13.5833,73.15,97,100,1.68,GN,1723159170
528,sao joao da barra,-21.6403,-41.0511,74.01,84,0,21.3,BR,1723159172
529,howard springs,-12.497,131.047,74.88,56,15,8.57,AU,1723159174
530,valdivia,-39.8142,-73.2459,39.72,97,43,0.98,CL,1723158878
531,mocimboa,-11.3167,40.35,69.48,88,20,3.8,MZ,1723159177
532,cold springs,39.6802,-119.9766,95.11,20,69,5.01,US,1723159179
533,guerrero negro,27.9769,-114.0611,79.34,52,0,16.53,MX,1723159141
534,cururupu,-1.8283,-44.8683,76.82,84,57,3.94,BR,1723159182
535,pingzhuang,42.0372,119.2889,73.42,81,95,6.17,CN,1723159184
536,kholmsk,47.0511,142.0569,66.38,99,100,4.25,RU,1723159186
537,vallegrande,-18.4897,-64.1069,43.39,88,100,6.8,BO,1723159187
538,benghazi,32.1167,20.0667,81.59,73,0,13.47,LY,1723159189
539,mombetsu,44.3525,143.3525,70.83,97,100,3.83,JP,1723159191
540,lensk,60.7253,114.9278,66.31,78,15,4.34,RU,1723159194
541,fougamou,-1.2154,10.5838,71.83,87,94,2.86,GA,1723159196
542,abra pampa,-22.7205,-65.697,44.31,6,0,23.47,AR,1723159198
543,miquelon,47.0975,-56.3814,61.99,77,27,23.71,PM,1723159199
544,kaya,13.0917,-1.0844,81.43,69,77,6.31,BF,1723159202
545,camarinas,43.1311,-9.1817,66.85,90,5,15.03,ES,1723159204
546,san salvador de jujuy,-24.1946,-65.2971,39.88,56,12,1.25,AR,1723159206
547,usogorsk,63.4106,48.6872,51.55,75,6,2.57,RU,1723159208
548,shemgang,27.2169,90.6579,67.12,100,99,0.74,BT,1723159210
549,cogan,10.5931,124.0178,79.25,83,98,2.08,PH,1723159211
550,kalajoki,64.25,23.95,58.68,84,84,5.32,FI,1723159214
551,sveti jurij,46.7986,16.0352,60.93,95,27,2.24,AT,1723159215
